{
  "data": [
    {
      "lat": 49.855853512008835,
      "lng": 24.023593660314404,
      "streetName": "проспект В'ячеслава Чорновола",
      "houseNumber": "16A"
    },
    {
      "lat": 49.87098854282665,
      "lng": 24.04232230508194,
      "streetName": "Івана Миколайчука",
      "houseNumber": "7"
    },
    {
      "lat": 49.87105075758251,
      "lng": 24.00293039714593,
      "streetName": "Під Голоском",
      "houseNumber": "20"
    },
    {
      "lat": 49.873394726161,
      "lng": 24.05854239767406,
      "streetName": "Мідна",
      "houseNumber": "6"
    },
    {
      "lat": 49.8721115616897,
      "lng": 23.942492013018036,
      "streetName": "Шевченка",
      "houseNumber": "318"
    },
    {
      "lat": 49.84385887640219,
      "lng": 23.957489667851462,
      "streetName": "Широка",
      "houseNumber": "97"
    },
    {
      "lat": 49.82783546437861,
      "lng": 23.949996680042386,
      "streetName": "Городоцька",
      "houseNumber": "226Б"
    },
    {
      "lat": 49.81256368672783,
      "lng": 23.977377461333173,
      "streetName": "Виговського",
      "houseNumber": "100"
    },
    {
      "lat": 49.80538712845666,
      "lng": 23.980032351320848,
      "streetName": "Кульпарківська",
      "houseNumber": "226"
    },
    {
      "lat": 49.79993887802674,
      "lng": 24.026799567266554,
      "streetName": "Хуторівка",
      "houseNumber": "4Б"
    }
  ]
}